{
"type": "FeatureCollection",
"name": "cantine_sociali_e_cooperative",
"crs": { "type": "name", "properties": { "name": "urn:ogc:def:crs:OGC:1.3:CRS84" } },
"features": [
{ "type": "Feature", "properties": { "Denominaz": "Soc. Coop. Cantina Alice Bel Colle - (Vignaioli Piemontesi Societa' Cooperativa Agricola)" }, "geometry": { "type": "Point", "coordinates": [ 8.439023, 44.725317 ] } },
{ "type": "Feature", "properties": { "Denominaz": "Vecchia Cantina Sociale Di Alice Bel Colle" }, "geometry": { "type": "Point", "coordinates": [ 8.439693, 44.724119 ] } },
{ "type": "Feature", "properties": { "Denominaz": "Cantina Sociale Di Cassine (Tre Cascine)" }, "geometry": { "type": "Point", "coordinates": [ 8.522525, 44.752962 ] } },
{ "type": "Feature", "properties": { "Denominaz": "Cantina Sociale Di Lu Monferrato" }, "geometry": { "type": "Point", "coordinates": [ 8.483207, 45.002921 ] } },
{ "type": "Feature", "properties": { "Denominaz": "Cantina Sociale di Ricaldone (Tre Secoli)" }, "geometry": { "type": "Point", "coordinates": [ 8.469739, 44.732444 ] } },
{ "type": "Feature", "properties": { "Denominaz": "Cantina Sociale Dei Colli Di Crea" }, "geometry": { "type": "Point", "coordinates": [ 8.309017, 45.10341 ] } },
{ "type": "Feature", "properties": { "Denominaz": "Antica Cantina Sociale Di Calosso" }, "geometry": { "type": "Point", "coordinates": [ 8.227747, 44.740299 ] } },
{ "type": "Feature", "properties": { "Denominaz": "Cantina Sociale di Casorzo e Zone Limitrofe" }, "geometry": { "type": "Point", "coordinates": [ 8.340708, 45.018407 ] } },
{ "type": "Feature", "properties": { "Denominaz": "Società Cooperativa Araldica Castelvero" }, "geometry": { "type": "Point", "coordinates": [ 8.380882, 44.721171 ] } },
{ "type": "Feature", "properties": { "Denominaz": "Cantina Sociale La Torre Di Castelrocchero" }, "geometry": { "type": "Point", "coordinates": [ 8.416717, 44.723689 ] } },
{ "type": "Feature", "properties": { "Denominaz": "Cantina Sociale Barbera Dei Sei Castelli (Punto vendita)" }, "geometry": { "type": "Point", "coordinates": [ 8.277499, 44.777996 ] } },
{ "type": "Feature", "properties": { "Denominaz": "Cantina Sociale Di Fontanile Di Asti Societa' Cooperativa Agricola" }, "geometry": { "type": "Point", "coordinates": [ 8.417249, 44.7519 ] } },
{ "type": "Feature", "properties": { "Denominaz": "Cantina Sociale Di Maranzana D'Asti - Societa' Cooperativa Agricola" }, "geometry": { "type": "Point", "coordinates": [ 8.472606, 44.757412 ] } },
{ "type": "Feature", "properties": { "Denominaz": "Cantina Sociale Di Mombaruzzo (Tre Secoli)" }, "geometry": { "type": "Point", "coordinates": [ 8.442323, 44.762766 ] } },
{ "type": "Feature", "properties": { "Denominaz": "Cantina Sociale Di Mombercelli E Paesi Limitrofi (Vignaioli Piemontesi Societa' Cooperativa Agricola)" }, "geometry": { "type": "Point", "coordinates": [ 8.295007, 44.820605 ] } },
{ "type": "Feature", "properties": { "Denominaz": "Società Cooperativa Tra Viticoltori Sette Colli" }, "geometry": { "type": "Point", "coordinates": [ 8.270266, 45.051991 ] } },
{ "type": "Feature", "properties": { "Denominaz": "Cantina Sociale Val Tiglione" }, "geometry": { "type": "Point", "coordinates": [ 8.231658, 44.82422 ] } },
{ "type": "Feature", "properties": { "Denominaz": "Cantina Sociale Di Nizza Monferrato" }, "geometry": { "type": "Point", "coordinates": [ 8.372262, 44.772297 ] } },
{ "type": "Feature", "properties": { "Denominaz": "Cantine Post Dal Vin - Terre Del Barbera - Societa' Cooperativa Agricola" }, "geometry": { "type": "Point", "coordinates": [ 8.350826, 44.857765 ] } },
{ "type": "Feature", "properties": { "Denominaz": "Viticoltori Associati di Vinchio e Vaglio Serra - Cantina Sociale Di Vinchio E Vaglio Serra" }, "geometry": { "type": "Point", "coordinates": [ 8.329641, 44.806147 ] } },
{ "type": "Feature", "properties": { "Denominaz": "Società Cooperativa Produttori Del Barbaresco" }, "geometry": { "type": "Point", "coordinates": [ 8.08082, 44.727142 ] } },
{ "type": "Feature", "properties": { "Denominaz": "Cantina Terre del Barolo Soc. Coop. Agr." }, "geometry": { "type": "Point", "coordinates": [ 7.976154, 44.645714 ] } },
{ "type": "Feature", "properties": { "Denominaz": "Cantina Sociale Del Dolcetto Di Dogliani" }, "geometry": { "type": "Point", "coordinates": [ 7.921181, 44.552362 ] } },
{ "type": "Feature", "properties": { "Denominaz": "Cantina Sociale Vallebelbo" }, "geometry": { "type": "Point", "coordinates": [ 8.211331, 44.696276 ] } },
{ "type": "Feature", "properties": { "Denominaz": "Cantina Vignaioli Elvio Pertinace Soc. Coop. Agr." }, "geometry": { "type": "Point", "coordinates": [ 8.065699, 44.702025 ] } },
{ "type": "Feature", "properties": { "Denominaz": "Cantina Sociale Montaldo Scarampi" }, "geometry": { "type": "Point", "coordinates": [ 8.253777, 44.823928 ] } },
{ "type": "Feature", "properties": { "Denominaz": "Cantina Sociale di Rocca d'Arazzo" }, "geometry": { "type": "Point", "coordinates": [ 8.296953, 44.874644 ] } },
{ "type": "Feature", "properties": { "Denominaz": "Cantina Sociale Produttori Insieme" }, "geometry": { "type": "Point", "coordinates": [ 8.685572, 44.72967 ] } },
{ "type": "Feature", "properties": { "Denominaz": "Cantina Sociale del Monferrato" }, "geometry": { "type": "Point", "coordinates": [ 8.40078, 45.070679 ] } },
{ "type": "Feature", "properties": { "Denominaz": "Soc. Coop. Produttori Agricoli di Santa Rosalia" }, "geometry": { "type": "Point", "coordinates": [ 8.015712, 44.67183 ] } },
{ "type": "Feature", "properties": { "Denominaz": "Cantina Sociale Asti Barbera" }, "geometry": { "type": "Point", "coordinates": [ 8.213905, 44.862948 ] } },
{ "type": "Feature", "properties": { "Denominaz": "Cantina Sociale Produttori del Gavi" }, "geometry": { "type": "Point", "coordinates": [ 8.80986, 44.686705 ] } },
{ "type": "Feature", "properties": { "Denominaz": "Cantina Sociale di Portacomaro d'Asti" }, "geometry": { "type": "Point", "coordinates": [ 8.25935, 44.952875 ] } },
{ "type": "Feature", "properties": { "Denominaz": "Soc. Cooperativa I Viticoltori dell'Acquese" }, "geometry": { "type": "Point", "coordinates": [ 8.472802, 44.67278 ] } },
{ "type": "Feature", "properties": { "Denominaz": "Cantina Sociale di Vignale Monferrato" }, "geometry": { "type": "Point", "coordinates": [ 8.40121, 45.009814 ] } },
{ "type": "Feature", "properties": { "Denominaz": "Soc. Cooperativa P.A.VITI.M." }, "geometry": { "type": "Point", "coordinates": [ 8.000111, 44.575284 ] } },
{ "type": "Feature", "properties": { "Denominaz": "Cantina Sociale di Castelnuovo Belbo" }, "geometry": { "type": "Point", "coordinates": [ 8.41221, 44.802355 ] } },
{ "type": "Feature", "properties": { "Denominaz": "Cantina Sociale Vignaioli di Canelli" }, "geometry": { "type": "Point", "coordinates": [ 8.287505, 44.714122 ] } },
{ "type": "Feature", "properties": { "Denominaz": "Andoma Societa' Cooperativa" }, "geometry": { "type": "Point", "coordinates": [ 8.028541, 44.649739 ] } },
{ "type": "Feature", "properties": { "Denominaz": "Antica Vineria Societa' Cooperativa Agricola" }, "geometry": { "type": "Point", "coordinates": [ 8.414652, 44.7196085 ] } },
{ "type": "Feature", "properties": { "Denominaz": "Antica Vineria Societa' Cooperativa Agricola" }, "geometry": { "type": "Point", "coordinates": [ 8.416154, 44.7181784 ] } },
{ "type": "Feature", "properties": { "Denominaz": "Asti - Barbera Di Mongardino, Isola D'Asti E San Marzanotto D'A- Sti Societa' Cooperativa A Responsabilita' Limitata" }, "geometry": { "type": "Point", "coordinates": [ 8.196366, 44.8464835 ] } },
{ "type": "Feature", "properties": { "Denominaz": "Cantina Sociale Cittadella Caroglio" }, "geometry": { "type": "Point", "coordinates": [ 8.389177, 44.995455 ] } },
{ "type": "Feature", "properties": { "Denominaz": "Cantina 'L Cavis Societa' Cooperativa Agricola" }, "geometry": { "type": "Point", "coordinates": [ 7.9072, 44.719005 ] } },
{ "type": "Feature", "properties": { "Denominaz": "Cantina Produttori Del Gavi Societa' Cooperativa Agricola Ovvero In Alternativa Produttori Del Gavi Societa' Cooperativa Agricola" }, "geometry": { "type": "Point", "coordinates": [ 8.812733, 44.68166 ] } },
{ "type": "Feature", "properties": { "Denominaz": "Cantina Sociale Barbera Dei Sei Castelli - Societa' Cooperativa Agricola" }, "geometry": { "type": "Point", "coordinates": [ 8.256659, 44.775945 ] } },
{ "type": "Feature", "properties": { "Denominaz": "Cantina Sociale Del Nebbiolo Di Vezza D'Alba Societa' Cooperativa Agricola Siglabile Cantina Del Nebbiolo S.C.A. Oppure Cantina Del Nebbiolo Soc. Coop" }, "geometry": { "type": "Point", "coordinates": [ 8.008896, 44.760475 ] } },
{ "type": "Feature", "properties": { "Denominaz": "Cantina Sociale Di Castagnole Monferrato Societa' Cooperativa Agrcola" }, "geometry": { "type": "Point", "coordinates": [ 8.30228, 44.955024 ] } },
{ "type": "Feature", "properties": { "Denominaz": "Cantina Sociale Di Mantovana S.C.A." }, "geometry": { "type": "Point", "coordinates": [ 8.622132, 44.7304953 ] } },
{ "type": "Feature", "properties": { "Denominaz": "Cantina Sociale Di Rivalta Bormida Soc Coop Agricola" }, "geometry": { "type": "Point", "coordinates": [ 8.548842, 44.7083716 ] } },
{ "type": "Feature", "properties": { "Denominaz": "Cantina Sociale Di Tortona - Vignaioli Del Tortonese S.C.A." }, "geometry": { "type": "Point", "coordinates": [ 8.856449, 44.898255 ] } },
{ "type": "Feature", "properties": { "Denominaz": "Cantina Sociale Di Tortona - Vignaioli Del Tortonese S.C.A. - Succursale di Villaromagnano" }, "geometry": { "type": "Point", "coordinates": [ 8.887857, 44.8476987 ] } },
{ "type": "Feature", "properties": { "Denominaz": "Cantina Tre Castelli - Societa' Cooperativa Agricola" }, "geometry": { "type": "Point", "coordinates": [ 8.592481, 44.679899 ] } },
{ "type": "Feature", "properties": { "Denominaz": "Il Casolare - Soc. Cooperativa Sociale A R.L." }, "geometry": { "type": "Point", "coordinates": [ 7.457177, 44.5682599 ] } },
{ "type": "Feature", "properties": { "Denominaz": "Produttori Di Govone Societa' Agricola Cooperativa Siglata P.D.G. - S.A.C. O Anche P.G. S.A.C." }, "geometry": { "type": "Point", "coordinates": [ 8.104759, 44.800566 ] } },
{ "type": "Feature", "properties": { "Denominaz": "Pusabren Soc. Coop. A.R.L." }, "geometry": { "type": "Point", "coordinates": [ 8.176363, 44.63798 ] } },
{ "type": "Feature", "properties": { "Denominaz": "Terra E Gente Societa' Cooperativa Agricola" }, "geometry": { "type": "Point", "coordinates": [ 7.97632, 45.094068 ] } },
{ "type": "Feature", "properties": { "Denominaz": "Cantina del Freisa - Terre Dei Santi Societa' Cooperativa Agricola" }, "geometry": { "type": "Point", "coordinates": [ 7.966032, 45.039325 ] } },
{ "type": "Feature", "properties": { "Denominaz": "Cantina del Barbera di San Damiano dAsti - Terre Dei Santi Societa' Cooperativa Agricola" }, "geometry": { "type": "Point", "coordinates": [ 8.060874, 44.828385 ] } },
{ "type": "Feature", "properties": { "Denominaz": "Valli Unite Societa' Cooperativa Agricola" }, "geometry": { "type": "Point", "coordinates": [ 8.918333, 44.816919 ] } },
{ "type": "Feature", "properties": { "Denominaz": "Vignaioli Piemontesi Societa' Cooperativa Agricola Siglabile Vignaioli Piemontesi Soc. Coop. Agr. O Vignaioli Piemontesi S.C .A." }, "geometry": { "type": "Point", "coordinates": [ 8.0606, 44.745846 ] } },
{ "type": "Feature", "properties": { "Denominaz": "Viterra - Societa' Cooperativa Agricola" }, "geometry": { "type": "Point", "coordinates": [ 8.367885, 44.84374 ] } },
{ "type": "Feature", "properties": { "Denominaz": "Agreos - Societa' Cooperativa Agricola" }, "geometry": { "type": "Point", "coordinates": [ 8.58455, 44.637549 ] } },
{ "type": "Feature", "properties": { "Denominaz": "Azienda Agricola La Viranda Societa' Cooperativa Siglabile Az.Ag. La Viranda Soc.Coop." }, "geometry": { "type": "Point", "coordinates": [ 8.330774, 44.730744 ] } },
{ "type": "Feature", "properties": { "Denominaz": "Azienda Agricola Rocchetta S.S." }, "geometry": { "type": "Point", "coordinates": [ 8.344473, 44.708659 ] } },
{ "type": "Feature", "properties": { "Denominaz": "Cantina Clavesana Societa' Cooperativa Agricola Identificabile A Nche Cantina Clavesana S.C.A., Ai Soli Fini Commerciali Con Denominazioni Con Giunte" }, "geometry": { "type": "Point", "coordinates": [ 7.899495, 44.4832369 ] } },
{ "type": "Feature", "properties": { "Denominaz": "Cantina Sociale San Giorgio Societa' Agricola Cooperativa" }, "geometry": { "type": "Point", "coordinates": [ 8.413319, 45.108789 ] } },
{ "type": "Feature", "properties": { "Denominaz": "Cantina Viticoltori Del Monferrato Societa' Cooperativa" }, "geometry": { "type": "Point", "coordinates": [ 8.230405, 45.106465 ] } },
{ "type": "Feature", "properties": { "Denominaz": "Cooperativa Agricola San Giorgio Societa' Agricola" }, "geometry": { "type": "Point", "coordinates": [ 8.166808, 45.072212 ] } },
{ "type": "Feature", "properties": { "Denominaz": "F.Lli Moscone Societa' Agricola Cooperativa" }, "geometry": { "type": "Point", "coordinates": [ 7.975569, 44.571 ] } },
{ "type": "Feature", "properties": { "Denominaz": "Terranera - Societa' Cooperativa Agricola" }, "geometry": { "type": "Point", "coordinates": [ 9.050418, 44.767406 ] } },
{ "type": "Feature", "properties": { "Denominaz": "Agriturismo Cascina Degli Ulivi Terranera Soc.Coop. Agricola" }, "geometry": { "type": "Point", "coordinates": [ 8.784868, 44.7609 ] } },
{ "type": "Feature", "properties": { "Denominaz": "Terranera - Societa' Cooperativa Agricola" }, "geometry": { "type": "Point", "coordinates": [ 8.767367, 44.7264633 ] } },
{ "type": "Feature", "properties": { "Denominaz": "Terrenostre Cantina Dolcetto E Moscato Soc. Coop. Agr." }, "geometry": { "type": "Point", "coordinates": [ 8.19395, 44.661511 ] } }
]
}
